{"armonk, ny": {"businesses": [{"id": "GHbY90nEpCaYf5_IN3HpCg", "alias": "sugar-hi-armonk", "name": "Sugar Hi", "image_url": "https://s3-media1.fl.yelpcdn.com/bphoto/0rMFrIiW3zLdB_tYopSGVA/o.jpg", "is_closed": false, "url": "https://www.yelp.com/biz/sugar-hi-armonk?adjust_creative=MH2JkVdHYTIZgUpEzRQJQg&utm_campaign=yelp_api_v3&utm_medium=api_v3_business_search&utm_source=MH2JkVdHYTIZgUpEzRQJQg", "review_count": 6, "categories": [{"alias": "icecream", "title": "Ice Cream & Frozen Yogurt"}, {"alias": "desserts", "title": "Desserts"}, {"alias": "bakeries", "title": "Bakeries"}], "rating": 4.5, "coordinates": {"latitude": 41.1252203, "longitude": -73.7139254}, "transactions": [], "location": {"address1": "380 Main St", "address2": "", "address3": null, "city": "Armonk", "zip_code": "10504", "country": "US", "state": "NY", "display_address": ["380 Main St", "Armonk, NY 10504"]}, "phone": "+19142734777", "display_phone": "(914) 273-4777", "distance": 683.7547882530631}, {"id": "L1jGj5Zj_3kXO9yJM4vszw", "alias": "nicks-pizza-and-ice-cream-armonk", "name": "Nick's Pizza & Ice Cream", "image_url": "https://s3-media4.fl.yelpcdn.com/bphoto/LRhoQT5wSeqfehlSqmxlSw/o.jpg", "is_closed": false, "url": "https://www.yelp.com/biz/nicks-pizza-and-ice-cream-armonk?adjust_creative=MH2JkVdHYTIZgUpEzRQJQg&utm_campaign=yelp_api_v3&utm_medium=api_v3_business_search&utm_source=MH2JkVdHYTIZgUpEzRQJQg", "review_count": 13, "categories": [{"alias": "pizza", "title": "Pizza"}, {"alias": "italian", "title": "Italian"}, {"alias": "icecream", "title": "Ice Cream & Frozen Yogurt"}], "rating": 4.0, "coordinates": {"latitude": 41.12521, "longitude": -73.69564}, "transactions": [], "price": "$$", "location": {"address1": "405 Bedford Rd", "address2": "", "address3": null, "city": "Armonk", "zip_code": "10504", "country": "US", "state": "NY", "display_address": ["405 Bedford Rd", "Armonk, NY 10504"]}, "phone": "+19147300003", "display_phone": "(914) 730-0003", "distance": 949.0267599365031}, {"id": "HyzutFw-2fB-nt8y5f2-eQ", "alias": "koku-armonk-3", "name": "Koku", "image_url": "https://s3-media3.fl.yelpcdn.com/bphoto/5Sa6u5wQCFLMbpHhWenUHg/o.jpg", "is_closed": false, "url": "https://www.yelp.com/biz/koku-armonk-3?adjust_creative=MH2JkVdHYTIZgUpEzRQJQg&utm_campaign=yelp_api_v3&utm_medium=api_v3_business_search&utm_source=MH2JkVdHYTIZgUpEzRQJQg", "review_count": 53, "categories": [{"alias": "japanese", "title": "Japanese"}, {"alias": "sushi", "title": "Sushi Bars"}], "rating": 4.0, "coordinates": {"latitude": 41.1275944446112, "longitude": -73.7125203}, "transactions": ["pickup"], "price": "$$", "location": {"address1": "454 Main St", "address2": "", "address3": "", "city": "Armonk", "zip_code": "10504", "country": "US", "state": "NY", "display_address": ["454 Main St", "Armonk, NY 10504"]}, "phone": "+19147300077", "display_phone": "(914) 730-0077", "distance": 497.6515210551175}, {"id": "0TARSjXoG1f711Nd1GfpeA", "alias": "moderne-barn-armonk", "name": "Moderne Barn", "image_url": "https://s3-media2.fl.yelpcdn.com/bphoto/YUawScFGEnzVzo7Tk6g0Xw/o.jpg", "is_closed": false, "url": "https://www.yelp.com/biz/moderne-barn-armonk?adjust_creative=MH2JkVdHYTIZgUpEzRQJQg&utm_campaign=yelp_api_v3&utm_medium=api_v3_business_search&utm_source=MH2JkVdHYTIZgUpEzRQJQg", "review_count": 244, "categories": [{"alias": "newamerican", "title": "American (New)"}], "rating": 3.5, "coordinates": {"latitude": 41.126078, "longitude": -73.695402}, "transactions": ["restaurant_reservation"], "price": "$$$", "location": {"address1": "430 Bedford Rd", "address2": "", "address3": "", "city": "Armonk", "zip_code": "10504", "country": "US", "state": "NY", "display_address": ["430 Bedford Rd", "Armonk, NY 10504"]}, "phone": "+19147300001", "display_phone": "(914) 730-0001", "distance": 957.5810611737978}, {"id": "-pH1gzfPXjFBctRSGCP3IA", "alias": "the-round-hill-store-greenwich-2", "name": "The Round Hill Store", "image_url": "https://s3-media4.fl.yelpcdn.com/bphoto/E-DcL1u330qwvoxXhipmUQ/o.jpg", "is_closed": false, "url": "https://www.yelp.com/biz/the-round-hill-store-greenwich-2?adjust_creative=MH2JkVdHYTIZgUpEzRQJQg&utm_campaign=yelp_api_v3&utm_medium=api_v3_business_search&utm_source=MH2JkVdHYTIZgUpEzRQJQg", "review_count": 9, "categories": [{"alias": "delis", "title": "Delis"}, {"alias": "coffee", "title": "Coffee & Tea"}, {"alias": "grocery", "title": "Grocery"}], "rating": 2.5, "coordinates": {"latitude": 41.092399597168, "longitude": -73.6676559448242}, "transactions": [], "location": {"address1": "369 Round Hill Rd", "address2": "", "address3": "", "city": "Greenwich", "zip_code": "06831", "country": "US", "state": "CT", "display_address": ["369 Round Hill Rd", "Greenwich, CT 06831"]}, "phone": "+12036291083", "display_phone": "(203) 629-1083", "distance": 5102.01053129622}, {"id": "i2NUuNQCnA1_GJuMb0nVuA", "alias": "fortina-armonk", "name": "Fortina", "image_url": "https://s3-media3.fl.yelpcdn.com/bphoto/ONfT2CSNqlnWxRe8NDhL8Q/o.jpg", "is_closed": false, "url": "https://www.yelp.com/biz/fortina-armonk?adjust_creative=MH2JkVdHYTIZgUpEzRQJQg&utm_campaign=yelp_api_v3&utm_medium=api_v3_business_search&utm_source=MH2JkVdHYTIZgUpEzRQJQg", "review_count": 294, "categories": [{"alias": "italian", "title": "Italian"}, {"alias": "bars", "title": "Bars"}], "rating": 4.0, "coordinates": {"latitude": 41.1263113, "longitude": -73.7120685}, "transactions": [], "price": "$$", "location": {"address1": "17 Maple Ave", "address2": null, "address3": "", "city": "Armonk", "zip_code": "10504", "country": "US", "state": "NY", "display_address": ["17 Maple Ave", "Armonk, NY 10504"]}, "phone": "+19142730900", "display_phone": "(914) 273-0900", "distance": 542.0596923907304}, {"id": "bYZK6oK0c6HkLXEfLMLNPw", "alias": "david-chen-armonk", "name": "David Chen", "image_url": "https://s3-media2.fl.yelpcdn.com/bphoto/nK6SxW-qMHyh8X0iRd3DbQ/o.jpg", "is_closed": false, "url": "https://www.yelp.com/biz/david-chen-armonk?adjust_creative=MH2JkVdHYTIZgUpEzRQJQg&utm_campaign=yelp_api_v3&utm_medium=api_v3_business_search&utm_source=MH2JkVdHYTIZgUpEzRQJQg", "review_count": 72, "categories": [{"alias": "chinese", "title": "Chinese"}, {"alias": "asianfusion", "title": "Asian Fusion"}, {"alias": "seafood", "title": "Seafood"}], "rating": 3.5, "coordinates": {"latitude": 41.13301, "longitude": -73.7122}, "transactions": [], "price": "$$", "location": {"address1": "85 Old Mount Kisco Rd", "address2": "", "address3": "", "city": "Armonk", "zip_code": "10504", "country": "US", "state": "NY", "display_address": ["85 Old Mount Kisco Rd", "Armonk, NY 10504"]}, "phone": "+19142736767", "display_phone": "(914) 273-6767", "distance": 758.664647171931}, {"id": "a6fQFtbE3rewKzENgQVcQw", "alias": "mariachi-mexico-armonk", "name": "Mariachi Mexico", "image_url": "https://s3-media1.fl.yelpcdn.com/bphoto/pRcjNjTz8FPfpXBeOtG8AA/o.jpg", "is_closed": false, "url": "https://www.yelp.com/biz/mariachi-mexico-armonk?adjust_creative=MH2JkVdHYTIZgUpEzRQJQg&utm_campaign=yelp_api_v3&utm_medium=api_v3_business_search&utm_source=MH2JkVdHYTIZgUpEzRQJQg", "review_count": 46, "categories": [{"alias": "mexican", "title": "Mexican"}], "rating": 3.5, "coordinates": {"latitude": 41.126167471434, "longitude": -73.714121769139}, "transactions": ["restaurant_reservation"], "price": "$$", "location": {"address1": "405 Main St", "address2": "", "address3": "", "city": "Armonk", "zip_code": "10504", "country": "US", "state": "NY", "display_address": ["405 Main St", "Armonk, NY 10504"]}, "phone": "+19142736805", "display_phone": "(914) 273-6805", "distance": 658.2541632537749}, {"id": "BGZ60NPBIt9i_dek895pMg", "alias": "seaside-sliders-norwalk", "name": "Seaside Sliders", "image_url": "https://s3-media2.fl.yelpcdn.com/bphoto/bZAhLjzSvGjjc80ESwzNfA/o.jpg", "is_closed": false, "url": "https://www.yelp.com/biz/seaside-sliders-norwalk?adjust_creative=MH2JkVdHYTIZgUpEzRQJQg&utm_campaign=yelp_api_v3&utm_medium=api_v3_business_search&utm_source=MH2JkVdHYTIZgUpEzRQJQg", "review_count": 4, "categories": [{"alias": "foodtrucks", "title": "Food Trucks"}, {"alias": "catering", "title": "Caterers"}], "rating": 5.0, "coordinates": {"latitude": 41.09767, "longitude": -73.4054}, "transactions": [], "location": {"address1": "4 First St", "address2": null, "address3": "", "city": "Norwalk", "zip_code": "06855", "country": "US", "state": "CT", "display_address": ["4 First St", "Norwalk, CT 06855"]}, "phone": "+12038579918", "display_phone": "(203) 857-9918", "distance": 25454.289556454267}, {"id": "sdknKTEs5dCHB16dFnsKlQ", "alias": "andys-italian-ices-nyc-maspeth-3", "name": "Andy's Italian Ices NYC", "image_url": "https://s3-media4.fl.yelpcdn.com/bphoto/9QtRedw9kULgbfFEKiU7aA/o.jpg", "is_closed": false, "url": "https://www.yelp.com/biz/andys-italian-ices-nyc-maspeth-3?adjust_creative=MH2JkVdHYTIZgUpEzRQJQg&utm_campaign=yelp_api_v3&utm_medium=api_v3_business_search&utm_source=MH2JkVdHYTIZgUpEzRQJQg", "review_count": 18, "categories": [{"alias": "icecream", "title": "Ice Cream & Frozen Yogurt"}, {"alias": "foodtrucks", "title": "Food Trucks"}, {"alias": "juicebars", "title": "Juice Bars & Smoothies"}], "rating": 4.0, "coordinates": {"latitude": 40.7231773, "longitude": -73.9113459}, "transactions": [], "price": "$", "location": {"address1": "5819 Maspeth Ave", "address2": "", "address3": "", "city": "Maspeth", "zip_code": "11378", "country": "US", "state": "NY", "display_address": ["5819 Maspeth Ave", "Maspeth, NY 11378"]}, "phone": "+15169727959", "display_phone": "(516) 972-7959", "distance": 48156.84810452904}, {"id": "HQilmwVx4apCnTbln6I0eQ", "alias": "a-dash-of-salt-westport-2", "name": "A Dash of Salt", "image_url": "https://s3-media3.fl.yelpcdn.com/bphoto/it0JhM7iz5_GC7ZxieqePA/o.jpg", "is_closed": false, "url": "https://www.yelp.com/biz/a-dash-of-salt-westport-2?adjust_creative=MH2JkVdHYTIZgUpEzRQJQg&utm_campaign=yelp_api_v3&utm_medium=api_v3_business_search&utm_source=MH2JkVdHYTIZgUpEzRQJQg", "review_count": 3, "categories": [{"alias": "catering", "title": "Caterers"}], "rating": 5.0, "coordinates": {"latitude": 41.13899, "longitude": -73.33159}, "transactions": [], "location": {"address1": "971 Post Rd E", "address2": "", "address3": "", "city": "Westport", "zip_code": "06880", "country": "US", "state": "CT", "display_address": ["971 Post Rd E", "Westport, CT 06880"]}, "phone": "+12033548174", "display_phone": "(203) 354-8174", "distance": 31434.385805983755}, {"id": "Rco6jzxO5bXWIQ8FZZWUBQ", "alias": "high-on-the-hog-ct-catering-and-special-events-milford", "name": "High on the Hog Ct. Catering and Special Events", "image_url": "https://s3-media2.fl.yelpcdn.com/bphoto/UCnP0ZKPGqNpLvCsvV9dCw/o.jpg", "is_closed": false, "url": "https://www.yelp.com/biz/high-on-the-hog-ct-catering-and-special-events-milford?adjust_creative=MH2JkVdHYTIZgUpEzRQJQg&utm_campaign=yelp_api_v3&utm_medium=api_v3_business_search&utm_source=MH2JkVdHYTIZgUpEzRQJQg", "review_count": 1, "categories": [{"alias": "catering", "title": "Caterers"}, {"alias": "eventplanning", "title": "Party & Event Planning"}, {"alias": "wedding_planning", "title": "Wedding Planning"}], "rating": 5.0, "coordinates": {"latitude": 41.1998450869606, "longitude": -73.1017712184361}, "transactions": [], "location": {"address1": "18 Lenox Ave", "address2": "", "address3": "", "city": "Milford", "zip_code": "06460", "country": "US", "state": "CT", "display_address": ["18 Lenox Ave", "Milford, CT 06460"]}, "phone": "+12033321223", "display_phone": "(203) 332-1223", "distance": 51258.5767578244}, {"id": "2gtbvidCQvnMB54TBU0zeQ", "alias": "skyfoods-flushing", "name": "SkyFOODS", "image_url": "https://s3-media1.fl.yelpcdn.com/bphoto/OB60tTxmAZIJiO4Y7wxsQA/o.jpg", "is_closed": false, "url": "https://www.yelp.com/biz/skyfoods-flushing?adjust_creative=MH2JkVdHYTIZgUpEzRQJQg&utm_campaign=yelp_api_v3&utm_medium=api_v3_business_search&utm_source=MH2JkVdHYTIZgUpEzRQJQg", "review_count": 90, "categories": [{"alias": "grocery", "title": "Grocery"}], "rating": 3.0, "coordinates": {"latitude": 40.7573436, "longitude": -73.8341922}, "transactions": ["pickup"], "price": "$$", "location": {"address1": "40-24 College Point Blvd", "address2": "", "address3": "", "city": "Flushing", "zip_code": "11354", "country": "US", "state": "NY", "display_address": ["40-24 College Point Blvd", "Flushing, NY 11354"]}, "phone": "+17189396688", "display_phone": "(718) 939-6688", "distance": 42634.35557119694}, {"id": "ZGqLuYU91pyiwTZxqY7N6Q", "alias": "wandering-dago-food-truck-and-catering-hudson-3", "name": "Wandering Dago Food Truck & Catering", "image_url": "https://s3-media2.fl.yelpcdn.com/bphoto/xEt8e0l8uacDT_5mPT40Fg/o.jpg", "is_closed": false, "url": "https://www.yelp.com/biz/wandering-dago-food-truck-and-catering-hudson-3?adjust_creative=MH2JkVdHYTIZgUpEzRQJQg&utm_campaign=yelp_api_v3&utm_medium=api_v3_business_search&utm_source=MH2JkVdHYTIZgUpEzRQJQg", "review_count": 15, "categories": [{"alias": "foodtrucks", "title": "Food Trucks"}, {"alias": "catering", "title": "Caterers"}], "rating": 4.0, "coordinates": {"latitude": 42.2528190612793, "longitude": -73.7914276123047}, "transactions": [], "price": "$$", "location": {"address1": "", "address2": "", "address3": "", "city": "Hudson", "zip_code": "12534", "country": "US", "state": "NY", "display_address": ["Hudson, NY 12534"]}, "phone": "+18454193246", "display_phone": "(845) 419-3246", "distance": 125291.27340955492}], "total": 14, "region": {"center": {"longitude": -73.70658874511719, "latitude": 41.12785476559363}}}, "ann arbor, mi": {"businesses": [{"id": "W4WNypFs--aQfpG0V5gsxQ", "alias": "blank-slate-creamery-ann-arbor", "name": "Blank Slate Creamery", "image_url": "https://s3-media1.fl.yelpcdn.com/bphoto/VtxqQ5HGI9vF-HtHpnfPiw/o.jpg", "is_closed": false, "url": "https://www.yelp.com/biz/blank-slate-creamery-ann-arbor?adjust_creative=MH2JkVdHYTIZgUpEzRQJQg&utm_campaign=yelp_api_v3&utm_medium=api_v3_business_search&utm_source=MH2JkVdHYTIZgUpEzRQJQg", "review_count": 252, "categories": [{"alias": "icecream", "title": "Ice Cream & Frozen Yogurt"}], "rating": 4.5, "coordinates": {"latitude": 42.279645, "longitude": -83.751305}, "transactions": [], "price": "$", "location": {"address1": "300 W Liberty St", "address2": "", "address3": "", "city": "Ann Arbor", "zip_code": "48103", "country": "US", "state": "MI", "display_address": ["300 W Liberty St", "Ann Arbor, MI 48103"]}, "phone": "+17349225383", "display_phone": "(734) 922-5383", "distance": 889.3056548088025}, {"id": "-rHwnEsdozf5894oV-J5jQ", "alias": "washtenaw-dairy-ann-arbor", "name": "Washtenaw Dairy", "image_url": "https://s3-media1.fl.yelpcdn.com/bphoto/oI-FCpVkWjoKsLRJj4KMVQ/o.jpg", "is_closed": false, "url": "https://www.yelp.com/biz/washtenaw-dairy-ann-arbor?adjust_creative=MH2JkVdHYTIZgUpEzRQJQg&utm_campaign=yelp_api_v3&utm_medium=api_v3_business_search&utm_source=MH2JkVdHYTIZgUpEzRQJQg", "review_count": 172, "categories": [{"alias": "donuts", "title": "Donuts"}, {"alias": "icecream", "title": "Ice Cream & Frozen Yogurt"}], "rating": 4.0, "coordinates": {"latitude": 42.27388, "longitude": -83.75039}, "transactions": [], "price": "$", "location": {"address1": "602 S Ashley St", "address2": "", "address3": "", "city": "Ann Arbor", "zip_code": "48103", "country": "US", "state": "MI", "display_address": ["602 S Ashley St", "Ann Arbor, MI 48103"]}, "phone": "+17346623244", "display_phone": "(734) 662-3244", "distance": 819.1207513940044}, {"id": "07y-bSUqBLcWpQF_vEdz9w", "alias": "michigan-creamery-ann-arbor", "name": "Michigan Creamery", "image_url": "https://s3-media4.fl.yelpcdn.com/bphoto/kbSH26iptO73QifjGIEHiw/o.jpg", "is_closed": false, "url": "https://www.yelp.com/biz/michigan-creamery-ann-arbor?adjust_creative=MH2JkVdHYTIZgUpEzRQJQg&utm_campaign=yelp_api_v3&utm_medium=api_v3_business_search&utm_source=MH2JkVdHYTIZgUpEzRQJQg", "review_count": 70, "categories": [{"alias": "icecream", "title": "Ice Cream & Frozen Yogurt"}, {"alias": "coffee", "title": "Coffee & Tea"}, {"alias": "juicebars", "title": "Juice Bars & Smoothies"}], "rating": 4.0, "coordinates": {"latitude": 42.279153, "longitude": -83.741058}, "transactions": [], "price": "$", "location": {"address1": "302 S State St", "address2": "", "address3": "", "city": "Ann Arbor", "zip_code": "48104", "country": "US", "state": "MI", "display_address": ["302 S State St", "Ann Arbor, MI 48104"]}, "phone": "+17346621700", "display_phone": "(734) 662-1700", "distance": 267.04324946937277}, {"id": "ul75XTRcDjOY7ldJdQGSjw", "alias": "iorios-gelateria-ann-arbor", "name": "Iorio's Gelateria", "image_url": "https://s3-media3.fl.yelpcdn.com/bphoto/0yt5g-MKYsSDjVaawL9VmA/o.jpg", "is_closed": false, "url": "https://www.yelp.com/biz/iorios-gelateria-ann-arbor?adjust_creative=MH2JkVdHYTIZgUpEzRQJQg&utm_campaign=yelp_api_v3&utm_medium=api_v3_business_search&utm_source=MH2JkVdHYTIZgUpEzRQJQg", "review_count": 120, "categories": [{"alias": "icecream", "title": "Ice Cream & Frozen Yogurt"}, {"alias": "gelato", "title": "Gelato"}], "rating": 4.5, "coordinates": {"latitude": 42.2776773, "longitude": -83.7428244}, "transactions": [], "price": "$", "location": {"address1": "522 E William St", "address2": "", "address3": "", "city": "Ann Arbor", "zip_code": "48104", "country": "US", "state": "MI", "display_address": ["522 E William St", "Ann Arbor, MI 48104"]}, "phone": "+17343994844", "display_phone": "(734) 399-4844", "distance": 134.35297015537617}, {"id": "JzPPGUm16rBa4K5djKbvKQ", "alias": "kilwins-original-recipe-ice-cream-ann-arbor", "name": "Kilwins Original Recipe Ice Cream", "image_url": "https://s3-media1.fl.yelpcdn.com/bphoto/71upP7mwY027UfcCOw1TEw/o.jpg", "is_closed": false, "url": "https://www.yelp.com/biz/kilwins-original-recipe-ice-cream-ann-arbor?adjust_creative=MH2JkVdHYTIZgUpEzRQJQg&utm_campaign=yelp_api_v3&utm_medium=api_v3_business_search&utm_source=MH2JkVdHYTIZgUpEzRQJQg", "review_count": 14, "categories": [{"alias": "comfortfood", "title": "Comfort Food"}, {"alias": "icecream", "title": "Ice Cream & Frozen Yogurt"}], "rating": 4.5, "coordinates": {"latitude": 42.2796898, "longitude": -83.7483368}, "transactions": [], "price": "$", "location": {"address1": "107 E Liberty St", "address2": "", "address3": "", "city": "Ann Arbor", "zip_code": "48104", "country": "US", "state": "MI", "display_address": ["107 E Liberty St", "Ann Arbor, MI 48104"]}, "phone": "+17347697759", "display_phone": "(734) 769-7759", "distance": 645.8318116152006}, {"id": "crfrwsDmkld65EapHGPWYg", "alias": "joe-and-rosie-creamery-ann-arbor", "name": "Joe and Rosie Creamery", "image_url": "https://s3-media1.fl.yelpcdn.com/bphoto/l2uEeCTLu9OdZe3V6P1E4w/o.jpg", "is_closed": false, "url": "https://www.yelp.com/biz/joe-and-rosie-creamery-ann-arbor?adjust_creative=MH2JkVdHYTIZgUpEzRQJQg&utm_campaign=yelp_api_v3&utm_medium=api_v3_business_search&utm_source=MH2JkVdHYTIZgUpEzRQJQg", "review_count": 43, "categories": [{"alias": "coffee", "title": "Coffee & Tea"}, {"alias": "icecream", "title": "Ice Cream & Frozen Yogurt"}, {"alias": "sandwiches", "title": "Sandwiches"}], "rating": 4.5, "coordinates": {"latitude": 42.28577, "longitude": -83.80512}, "transactions": [], "price": "$", "location": {"address1": "3780 Jackson Rd Suite C", "address2": "", "address3": "", "city": "Ann Arbor", "zip_code": "48103", "country": "US", "state": "MI", "display_address": ["3780 Jackson Rd Suite C", "Ann Arbor, MI 48103"]}, "phone": "+17342220555", "display_phone": "(734) 222-0555", "distance": 5345.613241028254}, {"id": "VryEKvz32SQ6rWVyI4Anmw", "alias": "ben-and-jerrys-ann-arbor", "name": "Ben & Jerry's", "image_url": "https://s3-media4.fl.yelpcdn.com/bphoto/uowODIaYDFXI7xu2kd70Qw/o.jpg", "is_closed": false, "url": "https://www.yelp.com/biz/ben-and-jerrys-ann-arbor?adjust_creative=MH2JkVdHYTIZgUpEzRQJQg&utm_campaign=yelp_api_v3&utm_medium=api_v3_business_search&utm_source=MH2JkVdHYTIZgUpEzRQJQg", "review_count": 34, "categories": [{"alias": "icecream", "title": "Ice Cream & Frozen Yogurt"}], "rating": 3.5, "coordinates": {"latitude": 42.2790794, "longitude": -83.7410812}, "transactions": ["delivery", "pickup"], "price": "$", "location": {"address1": "304 S State St", "address2": "", "address3": "", "city": "Ann Arbor", "zip_code": "48104", "country": "US", "state": "MI", "display_address": ["304 S State St", "Ann Arbor, MI 48104"]}, "phone": "+17346654440", "display_phone": "(734) 665-4440", "distance": 258.35613192216573}, {"id": "_JJNJEzPiSq9I0pCKSQrcQ", "alias": "kilwins-chocolate-shoppe-ann-arbor", "name": "Kilwin's Chocolate Shoppe", "image_url": "https://s3-media1.fl.yelpcdn.com/bphoto/GHLOhcMqII1uTvhc1VKhtA/o.jpg", "is_closed": false, "url": "https://www.yelp.com/biz/kilwins-chocolate-shoppe-ann-arbor?adjust_creative=MH2JkVdHYTIZgUpEzRQJQg&utm_campaign=yelp_api_v3&utm_medium=api_v3_business_search&utm_source=MH2JkVdHYTIZgUpEzRQJQg", "review_count": 68, "categories": [{"alias": "icecream", "title": "Ice Cream & Frozen Yogurt"}, {"alias": "desserts", "title": "Desserts"}], "rating": 3.5, "coordinates": {"latitude": 42.2796898, "longitude": -83.7483368}, "transactions": [], "price": "$$", "location": {"address1": "107 E Liberty St", "address2": "", "address3": "", "city": "Ann Arbor", "zip_code": "48104", "country": "US", "state": "MI", "display_address": ["107 E Liberty St", "Ann Arbor, MI 48104"]}, "phone": "+17347697759", "display_phone": "(734) 769-7759", "distance": 645.8318116152006}, {"id": "YEZ5wZ3wVjULbKHaUs0MuA", "alias": "zingermans-creamery-ann-arbor", "name": "Zingerman's Creamery", "image_url": "https://s3-media2.fl.yelpcdn.com/bphoto/LXLA4lLOHUk6U4bQKf-iFQ/o.jpg", "is_closed": false, "url": "https://www.yelp.com/biz/zingermans-creamery-ann-arbor?adjust_creative=MH2JkVdHYTIZgUpEzRQJQg&utm_campaign=yelp_api_v3&utm_medium=api_v3_business_search&utm_source=MH2JkVdHYTIZgUpEzRQJQg", "review_count": 39, "categories": [{"alias": "cheese", "title": "Cheese Shops"}, {"alias": "gelato", "title": "Gelato"}], "rating": 4.5, "coordinates": {"latitude": 42.2330552188139, "longitude": -83.7487368365929}, "transactions": [], "price": "$$", "location": {"address1": "3723 Plaza Dr", "address2": "Ste 2", "address3": "", "city": "Ann Arbor", "zip_code": "48108", "country": "US", "state": "MI", "display_address": ["3723 Plaza Dr", "Ste 2", "Ann Arbor, MI 48108"]}, "phone": "+17349290500", "display_phone": "(734) 929-0500", "distance": 4966.667966358321}, {"id": "X6dLau8UBaGrB8GWUsRKIQ", "alias": "go-ice-cream-ypsilanti", "name": "Go! Ice Cream", "image_url": "https://s3-media1.fl.yelpcdn.com/bphoto/d9_o9mebduZuv_Ku5UUXQQ/o.jpg", "is_closed": false, "url": "https://www.yelp.com/biz/go-ice-cream-ypsilanti?adjust_creative=MH2JkVdHYTIZgUpEzRQJQg&utm_campaign=yelp_api_v3&utm_medium=api_v3_business_search&utm_source=MH2JkVdHYTIZgUpEzRQJQg", "review_count": 50, "categories": [{"alias": "icecream", "title": "Ice Cream & Frozen Yogurt"}], "rating": 4.5, "coordinates": {"latitude": 42.2414974954944, "longitude": -83.6142611407878}, "transactions": [], "price": "$", "location": {"address1": "10 North Washington St", "address2": "", "address3": null, "city": "Ypsilanti", "zip_code": "48197", "country": "US", "state": "MI", "display_address": ["10 North Washington St", "Ypsilanti, MI 48197"]}, "phone": "+17342197484", "display_phone": "(734) 219-7484", "distance": 11160.044524220039}, {"id": "cK6HRIm1lGVF5ID9CaOQfw", "alias": "rods-diner-ann-arbor", "name": "Rod's Diner", "image_url": "https://s3-media3.fl.yelpcdn.com/bphoto/s6DBUyOn0F_hoDMauyoflw/o.jpg", "is_closed": false, "url": "https://www.yelp.com/biz/rods-diner-ann-arbor?adjust_creative=MH2JkVdHYTIZgUpEzRQJQg&utm_campaign=yelp_api_v3&utm_medium=api_v3_business_search&utm_source=MH2JkVdHYTIZgUpEzRQJQg", "review_count": 84, "categories": [{"alias": "desserts", "title": "Desserts"}, {"alias": "newamerican", "title": "American (New)"}, {"alias": "korean", "title": "Korean"}], "rating": 4.0, "coordinates": {"latitude": 42.2714881896973, "longitude": -83.7408447265625}, "transactions": ["delivery"], "price": "$", "location": {"address1": "812 S State St", "address2": "", "address3": "", "city": "Ann Arbor", "zip_code": "48104", "country": "US", "state": "MI", "display_address": ["812 S State St", "Ann Arbor, MI 48104"]}, "phone": "+17347695650", "display_phone": "(734) 769-5650", "distance": 585.6777758736542}, {"id": "v19u4Om7Nhk5CrIHA_RqTw", "alias": "sweeting-ann-arbor", "name": "Sweeting", "image_url": "https://s3-media3.fl.yelpcdn.com/bphoto/Ui_LRqa3GXckUsxNmgZlNg/o.jpg", "is_closed": false, "url": "https://www.yelp.com/biz/sweeting-ann-arbor?adjust_creative=MH2JkVdHYTIZgUpEzRQJQg&utm_campaign=yelp_api_v3&utm_medium=api_v3_business_search&utm_source=MH2JkVdHYTIZgUpEzRQJQg", "review_count": 77, "categories": [{"alias": "desserts", "title": "Desserts"}, {"alias": "bubbletea", "title": "Bubble Tea"}], "rating": 3.5, "coordinates": {"latitude": 42.27528, "longitude": -83.73388}, "transactions": [], "price": "$", "location": {"address1": "1213 S University Ave", "address2": "", "address3": "", "city": "Ann Arbor", "zip_code": "48104", "country": "US", "state": "MI", "display_address": ["1213 S University Ave", "Ann Arbor, MI 48104"]}, "phone": "+17342133300", "display_phone": "(734) 213-3300", "distance": 628.4360720447506}, {"id": "xVl-67hQiYR5Hy9-xAqATQ", "alias": "baskin-robbins-ann-arbor-4", "name": "Baskin Robbins", "image_url": "https://s3-media1.fl.yelpcdn.com/bphoto/ykiVBp3CQ5kbED_hvfZDQw/o.jpg", "is_closed": false, "url": "https://www.yelp.com/biz/baskin-robbins-ann-arbor-4?adjust_creative=MH2JkVdHYTIZgUpEzRQJQg&utm_campaign=yelp_api_v3&utm_medium=api_v3_business_search&utm_source=MH2JkVdHYTIZgUpEzRQJQg", "review_count": 6, "categories": [{"alias": "icecream", "title": "Ice Cream & Frozen Yogurt"}], "rating": 4.0, "coordinates": {"latitude": 42.2700699, "longitude": -83.77291}, "transactions": [], "price": "$", "location": {"address1": "1952 W Stadium Blvd", "address2": "", "address3": "", "city": "Ann Arbor", "zip_code": "48103", "country": "US", "state": "MI", "display_address": ["1952 W Stadium Blvd", "Ann Arbor, MI 48103"]}, "phone": "+17343323493", "display_phone": "(734) 332-3493", "distance": 2711.456485459037}, {"id": "V41pTOsbw_4fof6DPFX-uQ", "alias": "la-dolce-vita-ann-arbor", "name": "La Dolce Vita", "image_url": "https://s3-media1.fl.yelpcdn.com/bphoto/YRvngizSCbg6qYIvOwcdiA/o.jpg", "is_closed": false, "url": "https://www.yelp.com/biz/la-dolce-vita-ann-arbor?adjust_creative=MH2JkVdHYTIZgUpEzRQJQg&utm_campaign=yelp_api_v3&utm_medium=api_v3_business_search&utm_source=MH2JkVdHYTIZgUpEzRQJQg", "review_count": 121, "categories": [{"alias": "desserts", "title": "Desserts"}], "rating": 4.0, "coordinates": {"latitude": 42.278701, "longitude": -83.748828}, "transactions": [], "price": "$$", "location": {"address1": "322 S Main St", "address2": "", "address3": "", "city": "Ann Arbor", "zip_code": "48104", "country": "US", "state": "MI", "display_address": ["322 S Main St", "Ann Arbor, MI 48104"]}, "phone": "+18884563463", "display_phone": "(888) 456-3463", "distance": 665.3283419938525}, {"id": "noLyDLxwOkb5hBP0M9Dpiw", "alias": "cherry-bees-frozen-yogurt-and-ice-cream-ann-arbor", "name": "Cherry Bee's Frozen Yogurt & Ice Cream", "image_url": "https://s3-media2.fl.yelpcdn.com/bphoto/ZGnsPOBZ4_cISTCW-CVEXw/o.jpg", "is_closed": false, "url": "https://www.yelp.com/biz/cherry-bees-frozen-yogurt-and-ice-cream-ann-arbor?adjust_creative=MH2JkVdHYTIZgUpEzRQJQg&utm_campaign=yelp_api_v3&utm_medium=api_v3_business_search&utm_source=MH2JkVdHYTIZgUpEzRQJQg", "review_count": 6, "categories": [{"alias": "desserts", "title": "Desserts"}, {"alias": "icecream", "title": "Ice Cream & Frozen Yogurt"}], "rating": 3.5, "coordinates": {"latitude": 42.2306936234236, "longitude": -83.6997773498297}, "transactions": [], "price": "$$", "location": {"address1": "3980 Platt Rd", "address2": null, "address3": "", "city": "Ann Arbor", "zip_code": "48108", "country": "US", "state": "MI", "display_address": ["3980 Platt Rd", "Ann Arbor, MI 48108"]}, "phone": "+17344368654", "display_phone": "(734) 436-8654", "distance": 6155.84344188961}, {"id": "I3-BUkBeKYvofxc1aUPKKA", "alias": "tcby-ann-arbor-2", "name": "tcby", "image_url": "https://s3-media1.fl.yelpcdn.com/bphoto/8AT3XT8p10WFLOuqMzToyg/o.jpg", "is_closed": false, "url": "https://www.yelp.com/biz/tcby-ann-arbor-2?adjust_creative=MH2JkVdHYTIZgUpEzRQJQg&utm_campaign=yelp_api_v3&utm_medium=api_v3_business_search&utm_source=MH2JkVdHYTIZgUpEzRQJQg", "review_count": 22, "categories": [{"alias": "icecream", "title": "Ice Cream & Frozen Yogurt"}], "rating": 4.0, "coordinates": {"latitude": 42.2558948881821, "longitude": -83.6935869940148}, "transactions": [], "price": "$", "location": {"address1": "3354 Washtenaw Ave", "address2": "", "address3": "", "city": "Ann Arbor", "zip_code": "48104", "country": "US", "state": "MI", "display_address": ["3354 Washtenaw Ave", "Ann Arbor, MI 48104"]}, "phone": "+17343693366", "display_phone": "(734) 369-3366", "distance": 4554.907807549451}, {"id": "ajhbc-ab8W1wx6pkmlCKKw", "alias": "insomnia-cookies-ann-arbor", "name": "Insomnia Cookies", "image_url": "https://s3-media2.fl.yelpcdn.com/bphoto/NCaOEO_6nsKIvRcGg5L3Mw/o.jpg", "is_closed": false, "url": "https://www.yelp.com/biz/insomnia-cookies-ann-arbor?adjust_creative=MH2JkVdHYTIZgUpEzRQJQg&utm_campaign=yelp_api_v3&utm_medium=api_v3_business_search&utm_source=MH2JkVdHYTIZgUpEzRQJQg", "review_count": 80, "categories": [{"alias": "desserts", "title": "Desserts"}, {"alias": "bakeries", "title": "Bakeries"}], "rating": 3.0, "coordinates": {"latitude": 42.2751449, "longitude": -83.734126}, "transactions": [], "price": "$", "location": {"address1": "1229 S University Ave", "address2": "", "address3": "", "city": "Ann Arbor", "zip_code": "48104", "country": "US", "state": "MI", "display_address": ["1229 S University Ave", "Ann Arbor, MI 48104"]}, "phone": "+18776326654", "display_phone": "(877) 632-6654", "distance": 653.4740596335594}, {"id": "BPizwVM0AFvKLCquEHtwrg", "alias": "cold-stone-creamery-ann-arbor", "name": "Cold Stone Creamery", "image_url": "https://s3-media1.fl.yelpcdn.com/bphoto/PVbF6bkanvI3Ri2W8MMnLA/o.jpg", "is_closed": false, "url": "https://www.yelp.com/biz/cold-stone-creamery-ann-arbor?adjust_creative=MH2JkVdHYTIZgUpEzRQJQg&utm_campaign=yelp_api_v3&utm_medium=api_v3_business_search&utm_source=MH2JkVdHYTIZgUpEzRQJQg", "review_count": 25, "categories": [{"alias": "icecream", "title": "Ice Cream & Frozen Yogurt"}, {"alias": "customcakes", "title": "Custom Cakes"}, {"alias": "cupcakes", "title": "Cupcakes"}], "rating": 2.5, "coordinates": {"latitude": 42.2556576, "longitude": -83.6885177}, "transactions": [], "price": "$", "location": {"address1": "3597B Washtenaw Ave", "address2": "", "address3": "", "city": "Ann Arbor", "zip_code": "48104", "country": "US", "state": "MI", "display_address": ["3597B Washtenaw Ave", "Ann Arbor, MI 48104"]}, "phone": "+17349759110", "display_phone": "(734) 975-9110", "distance": 4942.820740118784}, {"id": "QaI6GlMrUmiXO2xlPaSG0Q", "alias": "dairy-queen-ann-arbor-2", "name": "Dairy Queen", "image_url": "https://s3-media4.fl.yelpcdn.com/bphoto/Kt7iF8ViAb3KBFf6KrL1zA/o.jpg", "is_closed": false, "url": "https://www.yelp.com/biz/dairy-queen-ann-arbor-2?adjust_creative=MH2JkVdHYTIZgUpEzRQJQg&utm_campaign=yelp_api_v3&utm_medium=api_v3_business_search&utm_source=MH2JkVdHYTIZgUpEzRQJQg", "review_count": 12, "categories": [{"alias": "icecream", "title": "Ice Cream & Frozen Yogurt"}], "rating": 2.5, "coordinates": {"latitude": 42.2603111, "longitude": -83.729187}, "transactions": [], "price": "$", "location": {"address1": "1805 Packard St", "address2": "", "address3": "", "city": "Ann Arbor", "zip_code": "48104", "country": "US", "state": "MI", "display_address": ["1805 Packard St", "Ann Arbor, MI 48104"]}, "phone": "+17346655588", "display_phone": "(734) 665-5588", "distance": 2082.186656968481}, {"id": "5ofwjunkhILIx1Qw_4IoTg", "alias": "dairy-queen-ann-arbor", "name": "Dairy Queen", "image_url": "https://s3-media1.fl.yelpcdn.com/bphoto/lhKHuiVZZ3IzNY6IRfE-tg/o.jpg", "is_closed": false, "url": "https://www.yelp.com/biz/dairy-queen-ann-arbor?adjust_creative=MH2JkVdHYTIZgUpEzRQJQg&utm_campaign=yelp_api_v3&utm_medium=api_v3_business_search&utm_source=MH2JkVdHYTIZgUpEzRQJQg", "review_count": 11, "categories": [{"alias": "icecream", "title": "Ice Cream & Frozen Yogurt"}], "rating": 3.5, "coordinates": {"latitude": 42.27855, "longitude": -83.77923}, "transactions": [], "price": "$", "location": {"address1": "2430 W Stadium Blvd", "address2": "", "address3": "", "city": "Ann Arbor", "zip_code": "48103", "country": "US", "state": "MI", "display_address": ["2430 W Stadium Blvd", "Ann Arbor, MI 48103"]}, "phone": "+17346637361", "display_phone": "(734) 663-7361", "distance": 3136.0828459103745}], "total": 212, "region": {"center": {"longitude": -83.74122619628906, "latitude": 42.2767546461982}}}}